{"_id":{"$oid":"5e9e468816a4ac206ce9654a"},"specialties":["Pepperoni pizza"," cheese pizza"," take out"],"name":"Panucci's Pizza","address":"123 Dreamway Ln.","priceRange":"Less expensive","rating":{"$numberDouble":"4.5"},"hours":"12:00pm - 12:00am","__v":{"$numberInt":"0"}}
{"_id":{"$oid":"5e9e470a16a4ac206ce9654b"},"specialties":["Hamburgers"," take-out"],"name":"Easy Eats","address":"45 Convenience Rd.","priceRange":"Less expensive","rating":{"$numberInt":"3"},"hours":"11:00am - 12:00pm","__v":{"$numberInt":"0"}}
{"_id":{"$oid":"5e9e473c16a4ac206ce9654c"},"specialties":["Huge food items"," catering"],"name":"Macro Bites","address":"1011 Huge Food Rd.","priceRange":"More expensive","rating":{"$numberInt":"5"},"hours":"12:00pm - 9:30pm","__v":{"$numberInt":"0"}}
{"_id":{"$oid":"5e9e477516a4ac206ce9654d"},"specialties":["Barbecue ribs"," brisket"," sandwiches"],"name":"The Blind Pig","address":"88 BBQ Rd.","priceRange":"Somewhat expensive","rating":{"$numberDouble":"3.8"},"hours":"12:00pm - 9:30pm","__v":{"$numberInt":"0"}}
{"_id":{"$oid":"5e9e479c16a4ac206ce9654e"},"specialties":["Sandwiches"," burgers"," fries"],"name":"Many Foods","address":"123 Many Foods Ln.","priceRange":"Less expensive","rating":{"$numberDouble":"2.5"},"hours":"8:30am - 9:30pm","__v":{"$numberInt":"0"}}
{"_id":{"$oid":"5e9e47e916a4ac206ce9654f"},"specialties":["General Tso's chicken"," crab rangoon"," wanton soup"],"name":"Asian Express","address":"32 Roadway Ln.","priceRange":"More expensive","rating":{"$numberDouble":"4.6"},"hours":"11:00am - 8:30pm","__v":{"$numberInt":"0"}}
